{ "_id" : { "$oid" : "551527527c388538232dc673" }, "title" : "Un périple pour étréchy", "description" : "<p>Comment aller de la ville à la campagne</p>", "location" : "En beausserie", "date" : "11/11/1111", "time" : "11:11", "zoom" : 15, "markers" : [ { "label" : "1 Allée des Moulins, 91190 Gif-sur-Yvette, France", "_id" : { "$oid" : "551527527c388538232dc678" }, "location" : { "latitude" : 48.696288, "longitude" : 2.124083000000041 } }, { "label" : "4bis Rue du Marais, 91400 Gometz-la-Ville, France", "_id" : { "$oid" : "551527527c388538232dc677" }, "location" : { "latitude" : 48.664307, "longitude" : 2.127143199999978 } }, { "label" : "D131, 91640 Briis-sous-Forges, France", "_id" : { "$oid" : "551527527c388538232dc676" }, "location" : { "latitude" : 48.6111219, "longitude" : 2.126676299999986 } }, { "label" : "Route de la Petite Beauce, 91530 Saint-Chéron, France", "_id" : { "$oid" : "551527527c388538232dc675" }, "location" : { "latitude" : 48.5406138, "longitude" : 2.123748500000033 } }, { "label" : "1 Villa Mozart, 91580 Étréchy, France", "_id" : { "$oid" : "551527527c388538232dc674" }, "location" : { "latitude" : 48.4888622, "longitude" : 2.174508100000025 } } ], "center" : { "latitude" : "48.48921229354308", "longitude" : "2.1789884182739083" }, "riders" : [ "Julien", "Cédric" ], "__v" : 2 }
{ "_id" : { "$oid" : "551529e87c388538232dc679" }, "title" : "Balade autours de Fontainebleau", "description" : "<h4>Une balade sympathique dans le sud est parisien</h4><p><br/></p><p>La balade commence tranquillement à la campagne avant de se rapprocher de la forêt de Fontainebleau et de chateau.</p><p>Puis repars en campagne.</p>", "location" : "Sud-Est parisien", "date" : "11/11/1111", "time" : "11:11", "zoom" : 10, "markers" : [ { "label" : "D837, 91880 Bouville, France", "_id" : { "$oid" : "551529e87c388538232dc683" }, "location" : { "latitude" : 48.4293296, "longitude" : 2.27528140000004 } }, { "label" : "39-51 D837, 91490 Milly-la-Forêt, France", "_id" : { "$oid" : "551529e87c388538232dc682" }, "location" : { "latitude" : 48.4009355, "longitude" : 2.486855699999978 } }, { "label" : "372-376 D409, 77630 Arbonne-la-Forêt, France", "_id" : { "$oid" : "551529e87c388538232dc681" }, "location" : { "latitude" : 48.409465, "longitude" : 2.563590599999998 } }, { "label" : "23-25 Rue de la Croix Saint-Antoine, 77760 Achères-la-Forêt, France", "_id" : { "$oid" : "551529e87c388538232dc680" }, "location" : { "latitude" : 48.3526761, "longitude" : 2.573227599999996 } }, { "label" : "D104, 77760 Villiers-sous-Grez, France", "_id" : { "$oid" : "551529e87c388538232dc67f" }, "location" : { "latitude" : 48.3184049, "longitude" : 2.659165900000062 } }, { "label" : "Route de Sorques, 77250 Épisy, France", "_id" : { "$oid" : "551529e87c388538232dc67e" }, "location" : { "latitude" : 48.33543539999999, "longitude" : 2.78007249999996 } }, { "label" : "35-39 Boulevard Magenta, 77300 Fontainebleau, France", "_id" : { "$oid" : "551529e87c388538232dc67d" }, "location" : { "latitude" : 48.40116, "longitude" : 2.696304000000055 } }, { "label" : "D637, 77930 Chailly-en-Bière, France", "_id" : { "$oid" : "551529e87c388538232dc67c" }, "location" : { "latitude" : 48.455604, "longitude" : 2.609752800000024 } }, { "label" : "D191, 91610 Ballancourt-sur-Essonne, France", "_id" : { "$oid" : "551529e87c388538232dc67b" }, "location" : { "latitude" : 48.5211692, "longitude" : 2.393342500000017 } }, { "label" : "2-6 D449, 91590 La Ferté-Alais, France", "_id" : { "$oid" : "551529e87c388538232dc67a" }, "location" : { "latitude" : 48.4804051, "longitude" : 2.345524999999952 } } ], "center" : { "latitude" : "48.440022308774914", "longitude" : "2.5283050000000458" }, "riders" : [ "Cédric", "Julien", "Clément F", "Clément N" ], "__v" : 4 }
{ "_id" : { "$oid" : "55152aec7c388538232dc684" }, "title" : "Les 17 tournants de Dampierres", "description" : "<p>Cette route permet de tracer un itinéraire qui passe par les fameux 17 tournants de la vallée de chevreuse.</p><p>On peut facilement s'arrêter au bar des motards, &#34;l'hermitage&#34;.</p><p>Elle passe aussi par des routes sympathiques comme Clairefontaine.</p>", "location" : "Rambouillet", "date" : "11/11/1111", "time" : "11:11", "zoom" : 10, "markers" : [ { "label" : "8 Rue Camille Flourens, 78280 Guyancourt, France", "_id" : { "$oid" : "55152aec7c388538232dc68c" }, "location" : { "latitude" : 48.77341149999999, "longitude" : 2.080475999999976 } }, { "label" : "7 Rue Paul et Jeanne Weiss, 78114 Magny-les-Hameaux, France", "_id" : { "$oid" : "55152aec7c388538232dc68b" }, "location" : { "latitude" : 48.741464, "longitude" : 2.043056200000024 } }, { "label" : "Rue d'Orsay, 91470 Limours, France", "_id" : { "$oid" : "55152aec7c388538232dc68a" }, "location" : { "latitude" : 48.6500414, "longitude" : 2.073496100000057 } }, { "label" : "1 Rue Guy le Rouge, 78730 Rochefort-en-Yvelines, France", "_id" : { "$oid" : "55152aec7c388538232dc689" }, "location" : { "latitude" : 48.5895661, "longitude" : 1.990534400000001 } }, { "label" : "D72, 78120 Clairefontaine-en-Yvelines, France", "_id" : { "$oid" : "55152aec7c388538232dc688" }, "location" : { "latitude" : 48.6187689, "longitude" : 1.917078899999979 } }, { "label" : "Route des 17 Tournants, 78720 Saint-Forget, France", "_id" : { "$oid" : "55152aec7c388538232dc687" }, "location" : { "latitude" : 48.7117564, "longitude" : 2.00179920000005 } }, { "label" : "Chemin de Milon, 78460 Chevreuse, France", "_id" : { "$oid" : "55152aec7c388538232dc686" }, "location" : { "latitude" : 48.7147614, "longitude" : 2.046587899999963 } }, { "label" : "21 Clos des Églantines, 78280 Guyancourt, France", "_id" : { "$oid" : "55152aec7c388538232dc685" }, "location" : { "latitude" : 48.7732175, "longitude" : 2.080421900000033 } } ], "center" : { "latitude" : "48.680473730547135", "longitude" : "1.9983600000000479" }, "riders" : [ "Cédric", "Xavier" ], "__v" : 2 }
{ "_id" : { "$oid" : "55152bb47c388538232dc68d" }, "title" : "Tours", "description" : "<p>Une balade prenant une demie journée pour parcourir le Loire et ses <b><u>caves</u></b>.</p>", "location" : "Région Tourainnes", "date" : "11/11/1111", "time" : "11:11", "zoom" : 9, "markers" : [ { "label" : "14 Boulevard Winston Churchill, 37000 Tours, France", "_id" : { "$oid" : "55152bb47c388538232dc694" }, "location" : { "latitude" : 47.3733921, "longitude" : 0.6904740999999603 } }, { "label" : "D751, 37190 Azay-le-Rideau, France", "_id" : { "$oid" : "55152bb47c388538232dc693" }, "location" : { "latitude" : 47.2608507, "longitude" : 0.4575141999999914 } }, { "label" : "24 Route de Candes, 37420 Savigny-en-Véron, France", "_id" : { "$oid" : "55152bb47c388538232dc692" }, "location" : { "latitude" : 47.2067918, "longitude" : 0.1443841000000248 } }, { "label" : "25 Rue du Maréchal Leclerc, 49400 Saumur, France", "_id" : { "$oid" : "55152bb47c388538232dc691" }, "location" : { "latitude" : 47.2558432, "longitude" : -0.08291580000002341 } }, { "label" : "8 Route de Coutures, 49350 Gennes, France", "_id" : { "$oid" : "55152bb47c388538232dc690" }, "location" : { "latitude" : 47.3442908, "longitude" : -0.2342223000000558 } }, { "label" : "Chemin de la Prée des Aireaux, 49130 Les Ponts-de-Cé, France", "_id" : { "$oid" : "55152bb47c388538232dc68f" }, "location" : { "latitude" : 47.414597, "longitude" : -0.5199440999999752 } }, { "label" : "60 Rue des Gouronnières, 49100 Angers, France", "_id" : { "$oid" : "55152bb47c388538232dc68e" }, "location" : { "latitude" : 47.4835302, "longitude" : -0.5757462999999916 } } ], "center" : { "latitude" : "47.32960993670614", "longitude" : "0.05736000000001695" }, "riders" : [ "Cédric", "Julien", "Clément N", "Clément F", "Thomas B", "Connasse", "Benoit G" ], "__v" : 7 }
{ "_id" : { "$oid" : "55152c887c388538232dc695" }, "title" : "Le Sud-Ouest", "description" : "<p>Un voyage d'<b><u><i>une semaine </i></u></b>couvrant le côte atlantique.</p>", "location" : "Côte atlantique", "date" : "11/11/1111", "time" : "11:11", "zoom" : 6, "markers" : [ { "label" : "23-31 D146, 91580 Étréchy, France", "_id" : { "$oid" : "55152c887c388538232dc69c" }, "location" : { "latitude" : 48.4874612, "longitude" : 2.189446500000031 } }, { "label" : "Les Prises, 17220 Saint-Vivien, France", "_id" : { "$oid" : "55152c887c388538232dc69b" }, "location" : { "latitude" : 46.0732821, "longitude" : -1.060383399999978 } }, { "label" : "15-23 Rue des Courlis, 17200 Royan, France", "_id" : { "$oid" : "55152c887c388538232dc69a" }, "location" : { "latitude" : 45.6437543, "longitude" : -1.020623099999966 } }, { "label" : "12 Chemin du Puy du Luc, 33320 Le Taillan-Médoc, France", "_id" : { "$oid" : "55152c887c388538232dc699" }, "location" : { "latitude" : 44.92194019999999, "longitude" : -0.6800164999999652 } }, { "label" : "Lotissement les Hauts de Fortuné, 64100 Bayonne, France", "_id" : { "$oid" : "55152c887c388538232dc698" }, "location" : { "latitude" : 43.4927858, "longitude" : -1.443527499999959 } }, { "label" : "6 Allée Romain Rolland, 87570 Rilhac-Rancon, France", "_id" : { "$oid" : "55152c887c388538232dc697" }, "location" : { "latitude" : 45.906017, "longitude" : 1.309266999999977 } }, { "label" : "Rue des Tulipiers, 91580 Étréchy, France", "_id" : { "$oid" : "55152c887c388538232dc696" }, "location" : { "latitude" : 48.4899196, "longitude" : 2.197618899999952 } } ], "center" : { "latitude" : "46.04713249324522", "longitude" : "0.3736199999999599" }, "riders" : [ "Cédric", "Julien", "Clément F", "Clément N" ], "__v" : 4 }
